{"version": 0.6, "generator": "Overpass API 0.7.62.1 084b4234", "osm3s": {"timestamp_osm_base": "2024-07-06T21:50:46Z", "copyright": "The data included in this document is from www.openstreetmap.org. The data is made available under ODbL."}, "elements": [{"type": "node", "id": 252622793, "lat": -18.9284366, "lon": 29.8140035, "tags": {"is_in": "Zimbabwe, Midlands", "name": "Kwekwe", "name:ml": "\u0d15\u0d4d\u0d35\u0d46\u0d15\u0d4d\u0d35\u0d46", "name:ru": "\u041a\u0432\u0435\u043a\u0432\u0435", "place": "city", "population": "93072", "source:population": "French Wikipedia", "wikidata": "Q399083", "wikipedia": "en:Kwekwe"}}, {"type": "node", "id": 695661989, "lat": -18.65642, "lon": 29.785682, "tags": {"name": "Munyati", "place": "village", "wikidata": "Q6937035"}}, {"type": "node", "id": 2288155260, "lat": -19.026094, "lon": 29.779494, "tags": {"name": "Redcliff", "place": "town", "population": "32346", "wikidata": "Q584001"}}, {"type": "node", "id": 2928758172, "lat": -18.8628949, "lon": 29.8451501, "tags": {"place": "hamlet"}}, {"type": "node", "id": 4069623061, "lat": -18.9248658, "lon": 29.7817689, "tags": {"name": "Amaveni", "place": "suburb"}}, {"type": "node", "id": 5774584558, "lat": -18.9471962, "lon": 29.8350584, "tags": {"name": "Msasa Park", "place": "suburb"}}, {"type": "node", "id": 5882243581, "lat": -18.6476582, "lon": 29.4941175, "tags": {"name": "Mushangi Business Center", "place": "village"}}, {"type": "node", "id": 6131255549, "lat": -18.6510636, "lon": 29.5650995, "tags": {"name": "Sosombe II Village 5", "place": "hamlet"}}, {"type": "node", "id": 6131259464, "lat": -18.6577777, "lon": 29.6195644, "tags": {"name": "Sosombe II Village 3", "place": "hamlet"}}, {"type": "node", "id": 6131260080, "lat": -18.7696116, "lon": 29.6004403, "tags": {"name": "Sosombe II Village 1", "place": "hamlet"}}, {"type": "node", "id": 6131260092, "lat": -18.7519963, "lon": 29.7104269, "tags": {"name": "Sosombe II Ext Village 13", "place": "hamlet"}}, {"type": "node", "id": 6131260093, "lat": -18.7481598, "lon": 29.7071198, "tags": {"name": "Sosombe II Ext Village 12", "place": "hamlet"}}, {"type": "node", "id": 6131260109, "lat": -18.7401297, "lon": 29.6962702, "tags": {"name": "Sosombe II Ext Village 10", "place": "hamlet"}}, {"type": "node", "id": 6131260116, "lat": -18.7178981, "lon": 29.6663475, "tags": {"name": "Sosombe II Ext Village 11", "place": "hamlet"}}, {"type": "node", "id": 6131260117, "lat": -18.6807948, "lon": 29.7091555, "tags": {"name": "Sosombe II Ext Village 9", "place": "hamlet"}}, {"type": "node", "id": 6131260118, "lat": -18.6854598, "lon": 29.6747482, "tags": {"name": "Sosombe II Ext Village 8", "place": "hamlet"}}, {"type": "node", "id": 6131260119, "lat": -18.6956584, "lon": 29.6500236, "tags": {"name": "Sosombe II Ext Village 7", "place": "hamlet"}}, {"type": "node", "id": 6131260120, "lat": -18.7113235, "lon": 29.6246982, "tags": {"name": "Sosombe II Village 2", "place": "village"}}, {"type": "node", "id": 6165552915, "lat": -18.8799756, "lon": 29.7114891, "tags": {"name": "Tiger Reef", "place": "village"}}, {"type": "node", "id": 6166493934, "lat": -18.6352373, "lon": 29.5064718, "tags": {"name": "Mawundi Village", "place": "village"}}, {"type": "node", "id": 6166493964, "lat": -18.6455729, "lon": 29.4617101, "tags": {"name": "Bhoki Village", "place": "village"}}, {"type": "node", "id": 6166493965, "lat": -18.6558108, "lon": 29.4928363, "tags": {"name": "Donjane Village", "place": "village"}}, {"type": "node", "id": 6166494286, "lat": -18.6251236, "lon": 29.4946534, "tags": {"name": "Ndumo Village", "place": "village"}}, {"type": "node", "id": 6166494295, "lat": -18.6231509, "lon": 29.4309553, "tags": {"name": "Manzamunyama Village", "place": "village"}}, {"type": "node", "id": 6166815842, "lat": -18.6088008, "lon": 29.6879446, "tags": {"name": "Muzvezve II, Village 13", "place": "village"}}, {"type": "node", "id": 6350680699, "lat": -18.9024903, "lon": 29.8456907, "tags": {"name": "Mbizo", "place": "suburb"}}, {"type": "node", "id": 8327507255, "lat": -18.9535788, "lon": 29.7953081, "tags": {"name": "Chicago", "place": "suburb"}}]}