{"version": 0.6, "generator": "Overpass API 0.7.62.1 084b4234", "osm3s": {"timestamp_osm_base": "2024-07-06T21:48:45Z", "copyright": "The data included in this document is from www.openstreetmap.org. The data is made available under ODbL."}, "elements": [{"type": "node", "id": 3088963878, "lat": -19.3232387, "lon": 31.436503, "tags": {"name": "Buhera", "place": "town", "wikidata": "Q15205658"}}, {"type": "node", "id": 3093040885, "lat": -19.26855, "lon": 31.652365, "tags": {"name": "Murambinda", "place": "town", "wikidata": "Q6937305"}}, {"type": "node", "id": 4842110532, "lat": -19.0621314, "lon": 31.4886431}, {"type": "node", "id": 4842110533, "lat": -19.0621491, "lon": 31.4887532}, {"type": "node", "id": 4842110534, "lat": -19.0622152, "lon": 31.4887414}, {"type": "node", "id": 4842110535, "lat": -19.0621975, "lon": 31.4886313}, {"type": "node", "id": 4842110536, "lat": -19.0621525, "lon": 31.488778}, {"type": "node", "id": 4842110537, "lat": -19.0621664, "lon": 31.4888581}, {"type": "node", "id": 4842110538, "lat": -19.0622236, "lon": 31.4888471}, {"type": "node", "id": 4842110539, "lat": -19.0622097, "lon": 31.488767}, {"type": "node", "id": 6467190607, "lat": -19.3189171, "lon": 31.7133976, "tags": {"name": "Madzivire", "place": "hamlet"}}, {"type": "node", "id": 6471823103, "lat": -19.2292928, "lon": 31.7199071, "tags": {"name": "Neshava", "place": "village"}}, {"type": "node", "id": 6471823104, "lat": -19.2393669, "lon": 31.7055736, "tags": {"name": "Chinyanga", "place": "hamlet"}}, {"type": "node", "id": 6481840867, "lat": -19.306003, "lon": 31.714474, "tags": {"name": "Mudinzwa", "place": "hamlet"}}, {"type": "node", "id": 6481877967, "lat": -19.2223446, "lon": 31.6716737, "tags": {"name": "Mavaire", "place": "village"}}, {"type": "node", "id": 6481877968, "lat": -19.2272108, "lon": 31.6622181, "tags": {"name": "Muchuweni", "place": "hamlet"}}, {"type": "node", "id": 6481877972, "lat": -19.2421777, "lon": 31.6755905, "tags": {"name": "Chipwanyira", "place": "hamlet"}}, {"type": "node", "id": 6484326730, "lat": -19.1896113, "lon": 31.7241115, "tags": {"name": "Shawa Quarry", "place": "locality"}}, {"type": "node", "id": 6484326744, "lat": -19.158275, "lon": 31.711997, "tags": {"name": "Baswi", "place": "hamlet"}}, {"type": "node", "id": 6484326745, "lat": -19.147532, "lon": 31.6928294, "tags": {"name": "Machacha", "place": "hamlet"}}, {"type": "node", "id": 6484326748, "lat": -19.0917019, "lon": 31.6865149, "tags": {"alt_name": "Matendera", "name": "Matendere", "place": "hamlet"}}, {"type": "node", "id": 6484326749, "lat": -19.1009278, "lon": 31.6757324, "tags": {"name": "Chirinda", "place": "hamlet"}}, {"type": "node", "id": 6484326752, "lat": -19.1003793, "lon": 31.7091069, "tags": {"name": "Manjengwa", "place": "hamlet"}}, {"type": "node", "id": 6485009742, "lat": -19.3752445, "lon": 31.7147253, "tags": {"name": "Mudanda", "place": "hamlet"}}, {"type": "node", "id": 6485009773, "lat": -19.4170298, "lon": 31.7338305, "tags": {"name": "Fadzamoyo", "place": "hamlet"}}, {"type": "node", "id": 6485009774, "lat": -19.4039763, "lon": 31.726771, "tags": {"name": "Mubvirwi", "place": "hamlet"}}, {"type": "node", "id": 6493088757, "lat": -19.3604058, "lon": 31.620956, "tags": {"name": "Murairwa", "place": "hamlet"}}, {"type": "node", "id": 6493088764, "lat": -19.3338868, "lon": 31.584794, "tags": {"name": "Maradzano", "place": "hamlet"}}, {"type": "way", "id": 492166253, "nodes": [4842110532, 4842110533, 4842110534, 4842110535, 4842110532], "tags": {"place": "farm"}}, {"type": "way", "id": 492166254, "nodes": [4842110536, 4842110537, 4842110538, 4842110539, 4842110536], "tags": {"place": "farm"}}]}