{"version": 0.6, "generator": "Overpass API 0.7.62.1 084b4234", "osm3s": {"timestamp_osm_base": "2024-07-06T21:48:45Z", "copyright": "The data included in this document is from www.openstreetmap.org. The data is made available under ODbL."}, "elements": [{"type": "node", "id": 2191375833, "lat": -19.3611377, "lon": 32.2008603, "tags": {"place": "village"}}, {"type": "node", "id": 2191375845, "lat": -19.364349, "lon": 32.2101906, "tags": {"place": "village"}}, {"type": "node", "id": 2702989753, "lat": -19.0188422, "lon": 32.368889, "tags": {"name": "Manicaland", "place": "state", "ref": "MA", "state_code": "MA"}}, {"type": "node", "id": 4664487378, "lat": -18.9948244, "lon": 32.6407429, "tags": {"name": "Sakubva", "place": "suburb"}}, {"type": "node", "id": 5767319660, "lat": -19.128722, "lon": 32.6400739, "tags": {"name": "Piki Village", "place": "village"}}, {"type": "node", "id": 6008139869, "lat": -19.0995423, "lon": 32.6227748, "tags": {"name": "Zimunya", "place": "town"}}, {"type": "node", "id": 6172542743, "lat": -18.9699606, "lon": 32.637468, "tags": {"name": "Chikanga", "place": "suburb"}}, {"type": "node", "id": 6507363699, "lat": -19.3690916, "lon": 32.5805862, "tags": {"name": "Mpudzi", "place": "hamlet"}}, {"type": "node", "id": 6507363700, "lat": -19.3810043, "lon": 32.57549, "tags": {"name": "Chimenga", "place": "hamlet"}}, {"type": "node", "id": 6507363703, "lat": -19.3774386, "lon": 32.5461877, "tags": {"name": "Muromo", "place": "village"}}, {"type": "node", "id": 6530453281, "lat": -18.9929295, "lon": 32.4264837, "tags": {"name": "Arda Transau", "place": "town"}}]}