{"version": 0.6, "generator": "Overpass API 0.7.62.1 084b4234", "osm3s": {"timestamp_osm_base": "2024-07-06T21:52:46Z", "copyright": "The data included in this document is from www.openstreetmap.org. The data is made available under ODbL."}, "elements": [{"type": "node", "id": 2898924854, "lat": -18.4969923, "lon": 26.4965268, "tags": {"name": "Lukosi", "place": "hamlet"}}, {"type": "node", "id": 2898930527, "lat": -18.4886503, "lon": 26.4909934, "tags": {"name": "Mbala Lodge", "place": "hamlet"}}, {"type": "node", "id": 4569119515, "lat": -18.33151, "lon": 26.5153276, "tags": {"name": "Chibondo", "place": "suburb"}}, {"type": "node", "id": 6384908225, "lat": -18.5794831, "lon": 26.254479, "tags": {"name": "Broken Bridge", "place": "locality"}}, {"type": "node", "id": 7543515834, "lat": -18.5858197, "lon": 26.3156583, "tags": {"name": "Sinamatella Camp", "place": "village"}}, {"type": "node", "id": 11207765884, "lat": -18.3647222, "lon": 26.5, "tags": {"name": "Hwange", "name:ml": "\u0d39\u0d4d\u0d35\u0d3e\u0d02\u0d17\u0d46", "place": "town"}}]}