{"version": 0.6, "generator": "Overpass API 0.7.62.1 084b4234", "osm3s": {"timestamp_osm_base": "2024-07-06T21:47:45Z", "copyright": "The data included in this document is from www.openstreetmap.org. The data is made available under ODbL."}, "elements": [{"type": "node", "id": 307524303, "lat": -17.3599818, "lon": 31.0645924, "tags": {"name": "Glendale", "place": "town"}}, {"type": "node", "id": 307673569, "lat": -17.506992, "lon": 30.972948, "tags": {"name": "Mazowe", "place": "village", "population": "6561", "population:date": "2012", "wikidata": "Q6798645"}}, {"type": "node", "id": 3739465685, "lat": -17.4429866, "lon": 30.8403217, "tags": {"place": "village"}}, {"type": "node", "id": 3739512817, "lat": -17.3726721, "lon": 30.9528236, "tags": {"name": "Concession", "place": "town"}}, {"type": "node", "id": 3739513349, "lat": -17.4399042, "lon": 30.8810195, "tags": {"place": "village"}}, {"type": "node", "id": 4786815407, "lat": -17.6946755, "lon": 31.1089092, "tags": {"name": "Hatcliffe", "place": "suburb"}}, {"type": "node", "id": 4959414768, "lat": -17.6772883, "lon": 30.8048272, "tags": {"name": "Nyabira", "place": "town"}}, {"type": "node", "id": 5323759068, "lat": -17.6698259, "lon": 31.1050844, "tags": {"name": "Glen Forest", "place": "neighbourhood"}}, {"type": "node", "id": 5614929209, "lat": -17.620096, "lon": 31.1511326, "tags": {"name": "Domboshawa", "place": "village"}}, {"type": "node", "id": 6085522626, "lat": -17.5808639, "lon": 31.1896966, "tags": {"mtb:name": "Ngomokaria View", "place": "locality"}}, {"type": "node", "id": 6105790362, "lat": -17.5844499, "lon": 31.1876994, "tags": {"mtb:name": "Figaro Bend", "place": "locality"}}, {"type": "node", "id": 6105814664, "lat": -17.5969225, "lon": 31.183852, "tags": {"mtb:name": "Muddy Hollow", "place": "locality"}}, {"type": "node", "id": 6134369299, "lat": -17.6229648, "lon": 31.2128116, "tags": {"mtb:name": "Winterfell", "place": "locality"}}, {"type": "node", "id": 6288554149, "lat": -17.6088578, "lon": 31.1979335, "tags": {"mtb:name": "Pine Tree Corner", "place": "locality"}}, {"type": "node", "id": 6288554150, "lat": -17.6118226, "lon": 31.2024891, "tags": {"mtb:name": "Rocky Corner", "place": "locality"}}, {"type": "node", "id": 6288554151, "lat": -17.6083628, "lon": 31.1940842, "tags": {"mtb:name": "Rock Step", "place": "locality"}}, {"type": "node", "id": 6299212297, "lat": -17.6374812, "lon": 31.2027118, "tags": {"mtb:name": "Peugeot Corner", "place": "locality"}}, {"type": "node", "id": 6586167947, "lat": -17.5736582, "lon": 31.1577381, "tags": {"mtb:name": "Red Flower Crossing", "place": "locality"}}, {"type": "node", "id": 8123637718, "lat": -17.686713, "lon": 31.0527015, "tags": {"mtb:name": "Heart Attack Hill", "place": "locality"}}, {"type": "node", "id": 8724668282, "lat": -17.7220357, "lon": 31.1731911, "tags": {"name": "Carrick Creagh Estate", "place": "quarter"}}, {"type": "node", "id": 8724668283, "lat": -17.7241205, "lon": 31.1647475, "tags": {"name": "Carrick Creagh Villas", "place": "neighbourhood"}}]}