{"version": 0.6, "generator": "Overpass API 0.7.62.1 084b4234", "osm3s": {"timestamp_osm_base": "2024-07-06T21:50:46Z", "copyright": "The data included in this document is from www.openstreetmap.org. The data is made available under ODbL."}, "elements": [{"type": "node", "id": 2702989759, "lat": -19.2785043, "lon": 29.8790852, "tags": {"name": "Midlands", "place": "state", "ref": "MI", "state_code": "MI"}}, {"type": "node", "id": 2861496265, "lat": -19.4204034, "lon": 30.041718, "tags": {"name": "Indiva", "place": "hamlet"}}, {"type": "node", "id": 3910000479, "lat": -19.3385878, "lon": 30.1812641, "tags": {"name": "Lalapansi", "place": "village"}}, {"type": "node", "id": 6173543818, "lat": -19.1378099, "lon": 30.0715373, "tags": {"name": "Chikutubwe Village 3", "place": "village"}}, {"type": "node", "id": 6173543994, "lat": -19.1560059, "lon": 30.0763418, "tags": {"name": "Chikutubwe Village 4", "place": "village"}}, {"type": "node", "id": 6173856721, "lat": -19.147023, "lon": 30.0965631, "tags": {"name": "Chikutubwe Village 5", "place": "village"}}, {"type": "node", "id": 6173856779, "lat": -19.1631373, "lon": 30.0506222, "tags": {"name": "Chikutubwe Village 2", "place": "village"}}, {"type": "node", "id": 6173856780, "lat": -19.1437796, "lon": 30.0433695, "tags": {"name": "Chikutubwe Village 1", "place": "village"}}]}