{"version": 0.6, "generator": "Overpass API 0.7.62.1 084b4234", "osm3s": {"timestamp_osm_base": "2024-07-06T21:50:46Z", "copyright": "The data included in this document is from www.openstreetmap.org. The data is made available under ODbL."}, "elements": [{"type": "node", "id": 2808523270, "lat": -21.381231, "lon": 28.9828307, "tags": {"name": "Guyu", "place": "village"}}, {"type": "node", "id": 2810405903, "lat": -21.4662523, "lon": 29.1954187, "tags": {"name": "Buvume Mission", "place": "village"}}, {"type": "node", "id": 2810618310, "lat": -21.5586886, "lon": 28.992037, "tags": {"name": "Manama Mission", "place": "village"}}, {"type": "node", "id": 11397522166, "lat": -21.3999285, "lon": 29.2225187, "tags": {"name": "Dombo", "place": "locality"}}, {"type": "node", "id": 11397522493, "lat": -21.4008282, "lon": 29.2014794, "tags": {"name": "Zvabagwamba", "place": "village"}}, {"type": "node", "id": 11397529378, "lat": -21.4097856, "lon": 29.2335944, "tags": {"name": "Mapula", "place": "village"}}, {"type": "node", "id": 11397534826, "lat": -21.4730803, "lon": 29.4034954, "tags": {"name": "Dotibani", "place": "village"}}]}