{"version": 0.6, "generator": "Overpass API 0.7.62.1 084b4234", "osm3s": {"timestamp_osm_base": "2024-07-06T21:49:45Z", "copyright": "The data included in this document is from www.openstreetmap.org. The data is made available under ODbL."}, "elements": [{"type": "node", "id": 253237975, "lat": -18.974656, "lon": 32.670473, "tags": {"capital": "4", "name": "Mutare", "name:ar": "\u0645\u0648\u062a\u0627\u0631\u064a", "name:ko": "\ubb34\ud0c0\ub808", "name:ml": "\u0d2e\u0d41\u0d24\u0d4d\u0d24\u0d3e\u0d30\u0d46", "name:ru": "\u041c\u0443\u0442\u0430\u0440\u0435", "old_name": "Umtali", "place": "city", "population": "188243", "source:population": "DBpedia", "wikidata": "Q399322", "wikipedia": "en:Mutare"}}, {"type": "node", "id": 1425009847, "lat": -19.0121704, "lon": 32.8677693, "tags": {"name": "Chirara", "place": "town"}}, {"type": "node", "id": 1425009848, "lat": -19.0115542, "lon": 33.0333121, "tags": {"name": "Nanvura", "place": "village"}}, {"type": "node", "id": 1425010652, "lat": -19.0142397, "lon": 32.9682555, "tags": {"name": "Chic\u00f3", "place": "town"}}, {"type": "node", "id": 2528017088, "lat": -18.992154, "lon": 32.732499, "tags": {"name": "Machipanda", "place": "town", "wikidata": "Q6723773", "wikipedia": "en:Machipanda"}}, {"type": "node", "id": 5695190751, "lat": -19.1349134, "lon": 32.6789859, "tags": {"name": "Chitakatira Growth Point", "place": "village"}}, {"type": "node", "id": 6368892826, "lat": -19.0381845, "lon": 32.6531696, "tags": {"name": "Fernhill", "place": "suburb"}}, {"type": "node", "id": 9980360329, "lat": -18.9825915, "lon": 33.0360145, "tags": {"name": "Chic\u00f3", "place": "village"}}]}