{"version": 0.6, "generator": "Overpass API 0.7.62.1 084b4234", "osm3s": {"timestamp_osm_base": "2024-07-06T21:50:46Z", "copyright": "The data included in this document is from www.openstreetmap.org. The data is made available under ODbL."}, "elements": [{"type": "node", "id": 253241617, "lat": -18.3374033, "lon": 29.9135021, "tags": {"is_in": "Zimbabwe, Mashonaland West", "name": "Kadoma", "name:en": "Kadoma", "name:ru": "\u041a\u0430\u0434\u043e\u043c\u0430", "name:uk": "\u041a\u0430\u0434\u043e\u043c\u0430", "place": "city", "population": "77749", "wikidata": "Q381560", "wikipedia": "en:Kadoma, Zimbabwe"}}, {"type": "node", "id": 4070297381, "lat": -18.3466653, "lon": 29.9198679, "tags": {"name": "Waverly", "place": "suburb"}}, {"type": "node", "id": 4070297382, "lat": -18.3349335, "lon": 29.9375919, "tags": {"name": "Mshumavale", "place": "suburb"}}, {"type": "node", "id": 4070297383, "lat": -18.3311653, "lon": 29.9042896, "tags": {"name": "Westview", "place": "suburb"}}, {"type": "node", "id": 4437853734, "lat": -18.310752, "lon": 29.978664, "tags": {"name": "Eiffel Flats", "place": "town", "wikidata": "Q5348876"}}, {"type": "node", "id": 4438342301, "lat": -18.3414555, "lon": 29.8864468, "tags": {"name": "Rimuka", "place": "suburb"}}, {"type": "node", "id": 7212901068, "lat": -18.2618862, "lon": 29.9975145, "tags": {"name": "Martin Spur", "place": "hamlet"}}]}