{"version": 0.6, "generator": "Overpass API 0.7.62.1 084b4234", "osm3s": {"timestamp_osm_base": "2024-07-06T21:50:46Z", "copyright": "The data included in this document is from www.openstreetmap.org. The data is made available under ODbL."}, "elements": [{"type": "node", "id": 297522524, "lat": -20.9414292, "lon": 29.0036855, "tags": {"capital": "4", "name": "Gwanda", "name:ar": "\u062c\u0648\u0627\u0646\u062f\u0627", "name:ru": "\u0413\u0432\u0430\u043d\u0434\u0430", "place": "town", "population": "14450", "wikidata": "Q1557796", "wikipedia": "en:Gwanda"}}, {"type": "node", "id": 298003865, "lat": -21.065729, "lon": 29.367657, "tags": {"name": "West Nicholson", "place": "town", "population": "1633", "wikidata": "Q1754606"}}, {"type": "node", "id": 2712322649, "lat": -21.001, "lon": 29.213269, "tags": {"name": "Colleen Bawn", "place": "village", "population": "2492", "wikidata": "Q5146233"}}, {"type": "node", "id": 2808517119, "lat": -20.9885694, "lon": 29.039105, "tags": {"name": "Koodoovale", "place": "village"}}, {"type": "node", "id": 9255291383, "lat": -20.7909084, "lon": 29.2990967, "tags": {"name": "Silalatshani Irrigation Scheme", "place": "locality"}}]}