{"version": 0.6, "generator": "Overpass API 0.7.62.1 084b4234", "osm3s": {"timestamp_osm_base": "2024-07-06T21:48:45Z", "copyright": "The data included in this document is from www.openstreetmap.org. The data is made available under ODbL."}, "elements": [{"type": "node", "id": 307152707, "lat": -17.2989727, "lon": 31.3299701, "tags": {"capital": "4", "name": "Bindura", "place": "town", "population": "40233", "wikidata": "Q863727"}}, {"type": "node", "id": 2543884067, "lat": -17.3125435, "lon": 31.5785292, "tags": {"name": "Shamva", "place": "town", "population": "10317", "source": "GNS", "wikidata": "Q606345"}}, {"type": "node", "id": 3851312416, "lat": -17.5046644, "lon": 31.4763805, "tags": {"addr:city": "Shamva District", "name": "Bythorn Farm", "place": "farm"}}, {"type": "node", "id": 3851315035, "lat": -17.4994663, "lon": 31.488216, "tags": {"name": "Lions Head Farm", "place": "farm"}}, {"type": "node", "id": 3851330681, "lat": -17.4841556, "lon": 31.5206992, "tags": {"name": "Poort Farm", "place": "farm"}}, {"type": "node", "id": 3851359585, "lat": -17.4470167, "lon": 31.4839535, "tags": {"name": "Woodlands Farm", "place": "farm"}}, {"type": "node", "id": 3851361592, "lat": -17.467412, "lon": 31.5064847, "tags": {"name": "Palm Grove Farm", "place": "farm"}}, {"type": "node", "id": 3851362630, "lat": -17.4442584, "lon": 31.5021701, "tags": {"name": "Ceres Farm", "place": "farm"}}, {"type": "node", "id": 3851414254, "lat": -17.6787561, "lon": 31.4719323, "tags": {"name": "Juru", "place": "town"}}, {"type": "node", "id": 3851499713, "lat": -17.4311896, "lon": 31.5266863, "tags": {"name": "Murgwi Farm", "place": "farm"}}, {"type": "node", "id": 4602375586, "lat": -17.3224978, "lon": 31.3531903, "tags": {"name": "Chipadze", "place": "suburb"}}, {"type": "node", "id": 4743208616, "lat": -17.6864427, "lon": 31.2789667, "tags": {"addr:city": "Enterprise", "addr:street": "Enterprise Road", "name": "Chabwino Farm", "operator": "Howson Trust", "place": "farm"}}, {"type": "node", "id": 4743284724, "lat": -17.4206474, "lon": 31.433633, "tags": {"name": "The Vale", "place": "farm"}}, {"type": "node", "id": 4853548184, "lat": -17.6236524, "lon": 31.4316921, "tags": {"description": "Farm Administration Buildings", "name": "Marsala Farm", "place": "farm"}}, {"type": "node", "id": 5559799295, "lat": -17.4917717, "lon": 31.3289201, "tags": {"name": "Supa", "place": "village"}}, {"type": "node", "id": 6198481229, "lat": -17.6749375, "lon": 31.3222237, "tags": {"mtb:name": "Puff Adder Crossing", "place": "locality"}}, {"type": "node", "id": 6200520339, "lat": -17.6279867, "lon": 31.2699462, "tags": {"mtb:name": "Austin's Ditch", "place": "locality"}}, {"type": "node", "id": 6203600872, "lat": -17.3968025, "lon": 31.3118237, "tags": {"name": "Manhenga", "place": "town"}}, {"type": "node", "id": 6435406854, "lat": -17.633422, "lon": 31.260525, "tags": {"mtb:name": "Robyn's Rock", "place": "locality"}}, {"type": "node", "id": 6926612057, "lat": -17.5985572, "lon": 31.2273222, "tags": {"mtb:name": "Graham's Jump", "place": "locality"}}, {"type": "node", "id": 7208593674, "lat": -17.628472, "lon": 31.2976668, "tags": {"mtb:name": "Mutandurwa View Point", "place": "locality"}}, {"type": "node", "id": 7643981954, "lat": -17.6710015, "lon": 31.5627176, "tags": {"name": "Pa Cross", "place": "village"}}]}