{"version": 0.6, "generator": "Overpass API 0.7.62.1 084b4234", "osm3s": {"timestamp_osm_base": "2024-07-06T21:47:45Z", "copyright": "The data included in this document is from www.openstreetmap.org. The data is made available under ODbL."}, "elements": [{"type": "node", "id": 253220522, "lat": -17.9189936, "lon": 30.8366266, "tags": {"name": "Bushman's Point", "place": "islet"}}, {"type": "node", "id": 282335934, "lat": -17.831773, "lon": 31.045686, "tags": {"admin_level": "2", "capital": "yes", "is_capital": "country", "name": "Harare", "name:am": "\u1200\u122b\u122c", "name:ar": "\u0647\u0631\u0627\u0631\u064a", "name:arz": "\u0647\u0627\u0631\u0627\u0631\u0649", "name:be": "\u0425\u0430\u0440\u0430\u0440\u044d", "name:bg": "\u0425\u0430\u0440\u0430\u0440\u0435", "name:bo": "\u0f67\u0f0b\u0f62\u0f0b\u0f62\u0f72\u0f0d", "name:br": "Harare", "name:ckb": "\u06be\u06d5\u0631\u0627\u0631\u06ce", "name:de": "Harare", "name:el": "\u03a7\u03b1\u03c1\u03ac\u03c1\u03b5", "name:en": "Harare", "name:eo": "Harareo", "name:es": "Harare", "name:fa": "\u0647\u0631\u0627\u0631\u0647", "name:fi": "Harare", "name:fr": "Harare", "name:he": "\u05d4\u05d0\u05e8\u05d0\u05e8\u05d4", "name:hi": "\u0939\u0930\u093e\u0930\u0947", "name:ht": "Arare", "name:hu": "Harare", "name:hy": "\u0540\u0561\u0580\u0561\u0580\u0565", "name:is": "Harare", "name:it": "Harare", "name:ja": "\u30cf\u30e9\u30ec", "name:ka": "\u10f0\u10d0\u10e0\u10d0\u10e0\u10d4", "name:ko": "\ud558\ub77c\ub808", "name:ku": "Harare", "name:ky": "\u0425\u0430\u0440\u0430\u0440\u0435", "name:la": "Hararensis Urbs", "name:lt": "Harar\u0117", "name:mk": "\u0425\u0430\u0440\u0430\u0440\u0435", "name:ml": "\u0d39\u0d30\u0d3e\u0d30\u0d46", "name:mn": "\u0425\u0430\u0440\u0430\u0440\u0435", "name:mr": "\u0939\u0930\u093e\u0930\u0947", "name:mrj": "\u0425\u0430\u0440\u0430\u0440\u0435", "name:nl": "Harare", "name:no": "Harare", "name:oc": "Harare", "name:os": "\u0425\u0430\u0440\u0430\u0440\u0435", "name:pl": "Harare", "name:pnb": "\u06c1\u0631\u0627\u0631\u06d2", "name:pt": "Harare", "name:ru": "\u0425\u0430\u0440\u0430\u0440\u0435", "name:sr": "\u0425\u0430\u0440\u0430\u0440\u0435", "name:sv": "Harare", "name:ta": "\u0bb9\u0bb0\u0bbe\u0bb0\u0bc7", "name:tg": "\u0425\u0430\u0440\u0430\u0440\u0435", "name:th": "\u0e2e\u0e32\u0e23\u0e32\u0e40\u0e23", "name:tr": "Harare", "name:udm": "\u0425\u0430\u0440\u0430\u0440\u0435", "name:ug": "\u06be\u0627\u0631\u0627\u0631\u06d0", "name:uk": "\u0425\u0430\u0440\u0430\u0440\u0435", "name:ur": "\u06c1\u0631\u0627\u0631\u06d2", "name:wo": "Arare", "name:zh": "\u54c8\u62c9\u96f7", "old_name": "Salisbury", "place": "city", "population": "1606000", "source:name:br": "ofis publik ar brezhoneg", "source:name:oc": "Lo Congr\u00e8s", "wikidata": "Q3921", "wikipedia": "en:Harare"}}, {"type": "node", "id": 319973341, "lat": -17.8606157, "lon": 31.1139565}, {"type": "node", "id": 319973509, "lat": -17.8605781, "lon": 31.1126129}, {"type": "node", "id": 319986393, "lat": -17.8605068, "lon": 31.1091654}, {"type": "node", "id": 1969421360, "lat": -17.793151, "lon": 31.0360581, "tags": {"name": "Avondale", "place": "suburb", "wikidata": "Q4829282", "wikipedia:en": "Avondale, Harare"}}, {"type": "node", "id": 2617611732, "lat": -17.8877361, "lon": 31.156797, "tags": {"census": "2012", "name": "Epworth", "place": "town", "population": "152116", "wikidata": "Q2084814", "wikipedia": "en:Epworth, Zimbabwe"}}, {"type": "node", "id": 2631166314, "lat": -17.8028055, "lon": 31.0161074, "tags": {"name": "Monavale", "place": "suburb"}}, {"type": "node", "id": 2631166364, "lat": -17.7970082, "lon": 31.0227535, "tags": {"name": "Strathaven", "place": "suburb", "wikidata": "Q108325483", "wikipedia": "en:Strathaven, Harare"}}, {"type": "node", "id": 2631180012, "lat": -17.7975199, "lon": 31.0287886, "tags": {"name": "Avondale West", "place": "suburb"}}, {"type": "node", "id": 2702989718, "lat": -17.8567035, "lon": 31.0601584, "tags": {"name": "Harare", "place": "state", "ref": "HA", "state_code": "HA"}}, {"type": "node", "id": 2794686086, "lat": -17.8076811, "lon": 30.9270758, "tags": {"name": "Dzivarasekwa Section 2", "place": "neighbourhood"}}, {"type": "node", "id": 2794686087, "lat": -17.8055087, "lon": 30.930268, "tags": {"name": "Dzivarasekwa Section 3", "place": "neighbourhood"}}, {"type": "node", "id": 2794686088, "lat": -17.8089092, "lon": 30.9301643, "tags": {"name": "Dzivarasekwa", "place": "suburb"}}, {"type": "node", "id": 3049269847, "lat": -18.0143462, "lon": 31.0726737, "tags": {"name": "Chitungwiza", "name:en": "Chitungwiza", "name:ml": "\u0d1a\u0d3f\u0d24\u0d41\u0d19\u0d4d\u0d35\u0d3f\u0d38", "name:ru": "\u0427\u0438\u0442\u0443\u043d\u0433\u0432\u0438\u0437\u0430", "place": "city", "population": "321782", "source:population": "French Wikipedia", "wikidata": "Q399119"}}, {"type": "node", "id": 3059729538, "lat": -18.0530778, "lon": 31.1914177, "tags": {"name": "Murape", "place": "village"}}, {"type": "node", "id": 3059729539, "lat": -18.0319359, "lon": 31.1618334, "tags": {"name": "Zin'anga", "place": "village"}}, {"type": "node", "id": 3417072783, "lat": -17.8124974, "lon": 30.9310081, "tags": {"name": "Kuwdzana Phase 3", "place": "neighbourhood"}}, {"type": "node", "id": 3428601165, "lat": -17.8516889, "lon": 31.1202221}, {"type": "node", "id": 3744524135, "lat": -17.934293, "lon": 30.9922097, "tags": {"name": "Hopley", "place": "suburb"}}, {"type": "node", "id": 3780927055, "lat": -17.9130568, "lon": 30.8002194, "tags": {"name": "Acacia Point", "place": "islet"}}, {"type": "node", "id": 3780927056, "lat": -17.9119001, "lon": 30.8357205}, {"type": "node", "id": 3780929457, "lat": -17.8908387, "lon": 30.7969887}, {"type": "node", "id": 3780929458, "lat": -17.9111784, "lon": 30.8293255}, {"type": "node", "id": 3780929459, "lat": -17.909152, "lon": 30.8028749}, {"type": "node", "id": 3802762624, "lat": -17.8949171, "lon": 30.7710604}, {"type": "node", "id": 3802762625, "lat": -17.8950867, "lon": 30.7714348}, {"type": "node", "id": 3802762626, "lat": -17.8951017, "lon": 30.7709657}, {"type": "node", "id": 3802762627, "lat": -17.895179, "lon": 30.7710717}, {"type": "node", "id": 3802762628, "lat": -17.8954151, "lon": 30.7713852}, {"type": "node", "id": 3802762629, "lat": -17.8954451, "lon": 30.7711664}, {"type": "node", "id": 3921949407, "lat": -17.9043363, "lon": 31.1558238, "tags": {"name": "Chinamano Extension", "place": "neighbourhood"}}, {"type": "node", "id": 3921949408, "lat": -17.9035155, "lon": 31.1660534, "tags": {"name": "Chinamano", "place": "neighbourhood"}}, {"type": "node", "id": 3921949409, "lat": -17.9072749, "lon": 31.1445304, "tags": {"name": "Domboramwari", "place": "neighbourhood"}}, {"type": "node", "id": 3921949410, "lat": -17.9183025, "lon": 31.1407736, "tags": {"name": "Glenwood Park", "place": "neighbourhood"}}, {"type": "node", "id": 3921949411, "lat": -17.9245626, "lon": 31.1408687, "tags": {"name": "Glenwood", "place": "neighbourhood"}}, {"type": "node", "id": 3921949412, "lat": -17.8780205, "lon": 31.1423516, "tags": {"name": "Jacha", "place": "neighbourhood"}}, {"type": "node", "id": 3921949413, "lat": -17.8945551, "lon": 31.1412189, "tags": {"name": "Makomo Extension", "place": "neighbourhood"}}, {"type": "node", "id": 3921949414, "lat": -17.8820723, "lon": 31.1311742, "tags": {"name": "Makomo", "place": "neighbourhood"}}, {"type": "node", "id": 3921949415, "lat": -17.8828958, "lon": 31.1391033, "tags": {"name": "Muguta Extension", "place": "neighbourhood"}}, {"type": "node", "id": 3921949416, "lat": -17.9115719, "lon": 31.168966, "tags": {"name": "Nyikavanhu", "place": "neighbourhood"}}, {"type": "node", "id": 3921949417, "lat": -17.8815652, "lon": 31.1610314, "tags": {"name": "Overspill", "place": "neighbourhood"}}, {"type": "node", "id": 3921949418, "lat": -17.9110885, "lon": 31.1603552, "tags": {"name": "Zinyengere", "place": "neighbourhood"}}, {"type": "node", "id": 3923282984, "lat": -17.8744214, "lon": 31.1328697, "tags": {"name": "Muguta", "place": "neighbourhood"}}, {"type": "node", "id": 3923318678, "lat": -17.8784161, "lon": 31.0858351, "tags": {"name": "Hatfield", "place": "suburb", "wikidata": "Q5681339", "wikipedia:en": "Hatfield, Harare"}}, {"type": "node", "id": 3923318679, "lat": -17.8972286, "lon": 31.0203457, "tags": {"name": "Waterfalls", "place": "suburb", "wikidata": "Q7973971", "wikipedia:en": "Waterfalls, Harare"}}, {"type": "node", "id": 4017146230, "lat": -17.7572989, "lon": 31.1080957, "tags": {"name": "Borrowdale", "place": "suburb", "wikidata": "Q3440803"}}, {"type": "node", "id": 4080563007, "lat": -17.9265933, "lon": 31.0218233}, {"type": "node", "id": 4080563011, "lat": -17.9287148, "lon": 31.0167019}, {"type": "node", "id": 4080563014, "lat": -17.9340348, "lon": 31.0235238}, {"type": "node", "id": 4080563016, "lat": -17.9437674, "lon": 31.0214424}, {"type": "node", "id": 4080563017, "lat": -17.9438848, "lon": 31.0208738}, {"type": "node", "id": 4081210816, "lat": -17.7553654, "lon": 31.077795, "tags": {"name": "Vainona", "place": "suburb"}}, {"type": "node", "id": 4081848749, "lat": -17.8590011, "lon": 31.1104415}, {"type": "node", "id": 4081848751, "lat": -17.8595168, "lon": 31.110699}, {"type": "node", "id": 4081848752, "lat": -17.8596623, "lon": 31.110994}, {"type": "node", "id": 4081848753, "lat": -17.8599253, "lon": 31.1095778}, {"type": "node", "id": 4081848756, "lat": -17.8601398, "lon": 31.1127964}, {"type": "node", "id": 4081848757, "lat": -17.86015, "lon": 31.1122868}, {"type": "node", "id": 4081848758, "lat": -17.8602623, "lon": 31.1097226}, {"type": "node", "id": 4081848761, "lat": -17.8605023, "lon": 31.112834}, {"type": "node", "id": 4081848762, "lat": -17.8605176, "lon": 31.1113856}, {"type": "node", "id": 4081848763, "lat": -17.8605176, "lon": 31.1141644}, {"type": "node", "id": 4081856475, "lat": -17.8422338, "lon": 31.0647433, "tags": {"name": "Braeside", "place": "suburb"}}, {"type": "node", "id": 4081856632, "lat": -17.851748, "lon": 31.1050314}, {"type": "node", "id": 4081856649, "lat": -17.8579646, "lon": 31.1128662}, {"type": "node", "id": 4081856650, "lat": -17.8579953, "lon": 31.1113266}, {"type": "node", "id": 4081856651, "lat": -17.8582046, "lon": 31.1138479}, {"type": "node", "id": 4081856652, "lat": -17.8582404, "lon": 31.1142448}, {"type": "node", "id": 4081856660, "lat": -17.8586693, "lon": 31.1113159}, {"type": "node", "id": 4081856823, "lat": -17.8559631, "lon": 31.1135743}, {"type": "node", "id": 4081856825, "lat": -17.856055, "lon": 31.1140839}, {"type": "node", "id": 4081856826, "lat": -17.8561163, "lon": 31.1135099}, {"type": "node", "id": 4081856827, "lat": -17.8561673, "lon": 31.1131666}, {"type": "node", "id": 4081856831, "lat": -17.8567698, "lon": 31.1131451}, {"type": "node", "id": 4081856833, "lat": -17.8568464, "lon": 31.1128662}, {"type": "node", "id": 4081856836, "lat": -17.85726, "lon": 31.1134348}, {"type": "node", "id": 4081856837, "lat": -17.8572651, "lon": 31.1139981}, {"type": "node", "id": 4081893343, "lat": -17.8609862, "lon": 31.12182}, {"type": "node", "id": 4082793594, "lat": -17.7938137, "lon": 31.1466712, "tags": {"name": "Mandara", "place": "suburb"}}, {"type": "node", "id": 4082793595, "lat": -17.7756332, "lon": 31.1372142, "tags": {"name": "The Grange", "place": "suburb"}}, {"type": "node", "id": 4082858699, "lat": -17.8127996, "lon": 31.1279185, "tags": {"name": "Greendale", "place": "suburb", "wikidata": "Q5603807", "wikipedia": "en:Greendale, Harare"}}, {"type": "node", "id": 4083283143, "lat": -17.7647896, "lon": 31.0444395, "tags": {"name": "Arundel", "place": "neighbourhood"}}, {"type": "node", "id": 4083283144, "lat": -17.7732889, "lon": 31.0528051, "tags": {"name": "Mount Pleasant", "place": "suburb", "wikidata": "Q6922823", "wikipedia:en": "Mount Pleasant, Harare"}}, {"type": "node", "id": 4085533502, "lat": -17.7981037, "lon": 31.090195, "tags": {"name": "Highlands", "place": "suburb"}}, {"type": "node", "id": 4085533503, "lat": -17.7653769, "lon": 30.9738909, "tags": {"name": "Westgate", "place": "suburb"}}, {"type": "node", "id": 4086921503, "lat": -17.8971125, "lon": 30.9347969, "tags": {"name": "Budiriro", "place": "suburb", "wikidata": "Q55606082", "wikipedia:en": "Budiriro"}}, {"type": "node", "id": 4088752019, "lat": -17.8633131, "lon": 31.034494, "tags": {"name": "Mbare", "place": "suburb", "wikidata": "Q6799629", "wikipedia:en": "Mbare, Harare"}}, {"type": "node", "id": 4092627432, "lat": -17.8397886, "lon": 31.2255335, "tags": {"name": "Damofalls Park", "place": "suburb"}}, {"type": "node", "id": 4092627433, "lat": -17.8655642, "lon": 31.2109152, "tags": {"name": "Zimre Park", "place": "neighbourhood"}}, {"type": "node", "id": 4103119043, "lat": -17.8913239, "lon": 30.9860534, "tags": {"name": "Highfield", "place": "suburb", "wikidata": "Q5758477", "wikipedia": "en:Highfield, Harare"}}, {"type": "node", "id": 4139215539, "lat": -17.9094411, "lon": 30.9433615, "tags": {"name": "Glen View", "place": "suburb"}}, {"type": "node", "id": 4348718002, "lat": -17.8904277, "lon": 30.7969646}, {"type": "node", "id": 4348718003, "lat": -17.8904277, "lon": 30.7970638}, {"type": "node", "id": 4348718005, "lat": -17.890586, "lon": 30.7966508}, {"type": "node", "id": 4348718006, "lat": -17.8906804, "lon": 30.7972355}, {"type": "node", "id": 4348718007, "lat": -17.8907621, "lon": 30.7965515}, {"type": "node", "id": 4348718008, "lat": -17.8908081, "lon": 30.7971389}, {"type": "node", "id": 4348718009, "lat": -17.8909153, "lon": 30.7971202}, {"type": "node", "id": 4348718010, "lat": -17.8909382, "lon": 30.7965515}, {"type": "node", "id": 4348718011, "lat": -17.8910046, "lon": 30.7966749}, {"type": "node", "id": 4348718496, "lat": -17.9086339, "lon": 30.802793}, {"type": "node", "id": 4348718497, "lat": -17.9086734, "lon": 30.802899}, {"type": "node", "id": 4348718498, "lat": -17.9087258, "lon": 30.8026978}, {"type": "node", "id": 4348718499, "lat": -17.9087385, "lon": 30.8029365}, {"type": "node", "id": 4348718500, "lat": -17.9087742, "lon": 30.8027542}, {"type": "node", "id": 4348718501, "lat": -17.9088636, "lon": 30.8029325}, {"type": "node", "id": 4348718502, "lat": -17.9089555, "lon": 30.8027461}, {"type": "node", "id": 4348718503, "lat": -17.9092413, "lon": 30.8026361}, {"type": "node", "id": 4348718504, "lat": -17.9093893, "lon": 30.8029044}, {"type": "node", "id": 4348718505, "lat": -17.9094723, "lon": 30.8028453}, {"type": "node", "id": 4348718506, "lat": -17.9111925, "lon": 30.8292597}, {"type": "node", "id": 4348718507, "lat": -17.9112231, "lon": 30.8293362}, {"type": "node", "id": 4348718508, "lat": -17.9112308, "lon": 30.829245}, {"type": "node", "id": 4348718509, "lat": -17.9112512, "lon": 30.8293161}, {"type": "node", "id": 4348718510, "lat": -17.9116449, "lon": 30.83586}, {"type": "node", "id": 4348718511, "lat": -17.9116729, "lon": 30.8358211}, {"type": "node", "id": 4348718512, "lat": -17.9117074, "lon": 30.8359002}, {"type": "node", "id": 4348718513, "lat": -17.911738, "lon": 30.8359995}, {"type": "node", "id": 4348718514, "lat": -17.9117686, "lon": 30.8358318}, {"type": "node", "id": 4348718515, "lat": -17.9119422, "lon": 30.8361255}, {"type": "node", "id": 4348718516, "lat": -17.912006, "lon": 30.836037}, {"type": "node", "id": 4348718517, "lat": -17.9120328, "lon": 30.835801}, {"type": "node", "id": 4348718518, "lat": -17.9120443, "lon": 30.8357648}, {"type": "node", "id": 4348718519, "lat": -17.9121196, "lon": 30.836092}, {"type": "node", "id": 4348718520, "lat": -17.9121413, "lon": 30.8358466}, {"type": "node", "id": 4348718521, "lat": -17.9121642, "lon": 30.8359109}, {"type": "node", "id": 4348718522, "lat": -17.9122076, "lon": 30.8359324}, {"type": "node", "id": 4367814875, "lat": -17.7452707, "lon": 31.0162199, "tags": {"name": "Marlborough", "place": "suburb"}}, {"type": "node", "id": 4401398822, "lat": -17.8165131, "lon": 31.0224728, "tags": {"name": "Milton Park", "place": "suburb"}}, {"type": "node", "id": 4413872792, "lat": -17.8530661, "lon": 30.9736166, "tags": {"name": "Kambuzuma", "place": "suburb"}}, {"type": "node", "id": 4428207680, "lat": -17.8453737, "lon": 31.1780222, "tags": {"name": "Chizhanje", "place": "suburb"}}, {"type": "node", "id": 4434685750, "lat": -17.7884514, "lon": 31.1185143, "tags": {"name": "Chisipite", "place": "suburb"}}, {"type": "node", "id": 4434783078, "lat": -17.795736, "lon": 31.1104731, "tags": {"name": "Lewisam", "place": "suburb"}}, {"type": "node", "id": 4453725497, "lat": -17.7823193, "lon": 31.0007677, "tags": {"name": "Mabelreign", "place": "suburb", "wikidata": "Q6721560", "wikipedia:en": "Mabelreign, Harare"}}, {"type": "node", "id": 4559199001, "lat": -17.8346655, "lon": 31.1877221, "tags": {"name": "Mabvuku", "place": "suburb", "wikidata": "Q6721677"}}, {"type": "node", "id": 4559199055, "lat": -17.8410516, "lon": 31.2039677, "tags": {"name": "Tafara", "place": "suburb"}}, {"type": "node", "id": 4653766078, "lat": -17.8149811, "lon": 31.0785782, "tags": {"name": "Eastlea", "place": "suburb"}}, {"type": "node", "id": 4730854389, "lat": -17.8280918, "lon": 30.9188093, "tags": {"name": "Kuwadzana", "place": "suburb", "wikidata": "Q6448804", "wikipedia:en": "Kuwadzana"}}, {"type": "node", "id": 4741433741, "lat": -17.7703417, "lon": 30.9884988, "tags": {"name": "Bluff Hill", "place": "suburb"}}, {"type": "node", "id": 4773362479, "lat": -17.8649795, "lon": 30.8665006, "tags": {"name": "Rydale Ridge", "place": "neighbourhood"}}, {"type": "node", "id": 4773588721, "lat": -17.8010497, "lon": 30.9684366, "tags": {"name": "Tynwald", "place": "suburb"}}, {"type": "node", "id": 4773588722, "lat": -17.827962, "lon": 31.0105365, "tags": {"name": "Belvedere", "place": "suburb", "wikidata": "Q4884856", "wikipedia:en": "Belvedere, Harare"}}, {"type": "node", "id": 4773677321, "lat": -17.8204959, "lon": 30.9788199, "tags": {"name": "Westlea", "place": "suburb"}}, {"type": "node", "id": 4779459290, "lat": -17.9068218, "lon": 30.9785955, "tags": {"name": "Glen Norah B", "place": "neighbourhood"}}, {"type": "node", "id": 4779459291, "lat": -17.9003899, "lon": 30.9642189, "tags": {"name": "Glen Norah A", "place": "neighbourhood"}}, {"type": "node", "id": 4779459292, "lat": -17.9050147, "lon": 30.9688543, "tags": {"name": "Glen Norah", "place": "suburb", "wikidata": "Q15221748"}}, {"type": "node", "id": 4779462826, "lat": -17.9145476, "lon": 30.9716097, "tags": {"name": "Glen Norah C", "place": "neighbourhood"}}, {"type": "node", "id": 4792184014, "lat": -17.7542627, "lon": 31.0446343, "tags": {"name": "Northwood", "place": "suburb"}}, {"type": "node", "id": 4863953821, "lat": -17.8505418, "lon": 30.9804121, "tags": {"name": "Westwood", "place": "neighbourhood"}}, {"type": "node", "id": 5285671121, "lat": -17.8294136, "lon": 30.8702839, "tags": {"name": "Madamba", "name:en": "Madamba", "place": "neighbourhood"}}, {"type": "node", "id": 5331711349, "lat": -17.8556415, "lon": 31.042479, "tags": {"name": "Matapi", "place": "neighbourhood"}}, {"type": "node", "id": 5365886295, "lat": -17.7427191, "lon": 31.1152982, "tags": {"name": "Greystone Park", "place": "neighbourhood"}}, {"type": "node", "id": 5518738478, "lat": -17.8675815, "lon": 30.9250733, "tags": {"name": "Mufakose", "place": "suburb", "wikidata": "Q6931991", "wikipedia": "en:Mufakose"}}, {"type": "node", "id": 5691519674, "lat": -17.7931404, "lon": 31.0674798, "tags": {"name": "Gunhill", "place": "neighbourhood"}}, {"type": "node", "id": 5825928790, "lat": -18.0064884, "lon": 31.0624373, "tags": {"name": "Zengeza", "place": "suburb"}}, {"type": "node", "id": 5825928791, "lat": -18.0190151, "lon": 31.0961741, "tags": {"name": "Seke", "place": "suburb"}}, {"type": "node", "id": 5882261788, "lat": -17.9933664, "lon": 31.0417413, "tags": {"name": "St. Mary's", "place": "suburb"}}, {"type": "node", "id": 5882373390, "lat": -17.9362294, "lon": 30.9696329, "tags": {"name": "Southview Park", "place": "suburb"}}, {"type": "node", "id": 5882373391, "lat": -17.9662424, "lon": 30.9834643, "tags": {"name": "Southlea Park", "place": "suburb"}}, {"type": "node", "id": 5935274554, "lat": -17.8515847, "lon": 31.0840237, "tags": {"name": "Cranborne", "place": "suburb"}}, {"type": "node", "id": 5936498518, "lat": -17.8496764, "lon": 31.1198115}, {"type": "node", "id": 5936498519, "lat": -17.8499336, "lon": 31.1138204}, {"type": "node", "id": 5936498520, "lat": -17.8500048, "lon": 31.1050858}, {"type": "node", "id": 6133463877, "lat": -17.8516919, "lon": 31.1053687}, {"type": "node", "id": 6133463879, "lat": -17.8502571, "lon": 31.1047411}, {"type": "node", "id": 6133463880, "lat": -17.8609001, "lon": 31.1113078}, {"type": "node", "id": 6133463881, "lat": -17.859879, "lon": 31.1107894}, {"type": "node", "id": 6207641862, "lat": -17.8506553, "lon": 31.1046392}, {"type": "node", "id": 6445222165, "lat": -17.7614115, "lon": 31.2133511, "tags": {"mtb:name": "Rhino Rock", "place": "locality"}}, {"type": "node", "id": 7008008895, "lat": -17.8376724, "lon": 30.9497175, "tags": {"name": "Cold Comfort", "place": "neighbourhood"}}, {"type": "node", "id": 7038018525, "lat": -17.8530961, "lon": 31.108987}, {"type": "node", "id": 7038018526, "lat": -17.8550262, "lon": 31.1098266}, {"type": "node", "id": 7038018527, "lat": -17.8560142, "lon": 31.107249}, {"type": "node", "id": 7038018528, "lat": -17.8540752, "lon": 31.1064}, {"type": "node", "id": 7235913406, "lat": -17.9501773, "lon": 30.954709, "tags": {"name": "Saturday Retreat", "place": "suburb"}}, {"type": "node", "id": 7467867776, "lat": -17.833268, "lon": 30.962171, "tags": {"name": "Warren Park", "place": "quarter"}}, {"type": "node", "id": 7467867777, "lat": -17.8404836, "lon": 30.9558463, "tags": {"name": "Warren Park 1", "place": "neighbourhood"}}, {"type": "node", "id": 7467867778, "lat": -17.8244281, "lon": 30.969362, "tags": {"name": "Warren Park D", "place": "neighbourhood"}}, {"type": "node", "id": 7569598370, "lat": -17.793042, "lon": 31.2030642, "tags": {"mtb:name": "Cathy's Rut", "place": "locality"}}, {"type": "node", "id": 7812388220, "lat": -17.7580191, "lon": 31.2225238, "tags": {"mtb:name": "BMW House", "place": "locality"}}, {"type": "node", "id": 8040333031, "lat": -17.8685477, "lon": 31.0541211, "tags": {"name": "Sunningdale", "place": "quarter"}}, {"type": "node", "id": 8562065195, "lat": -17.9999335, "lon": 31.0696343, "tags": {"name": "New Zengeza 4", "place": "quarter"}}, {"type": "node", "id": 8676222047, "lat": -18.0767041, "lon": 31.2138426, "tags": {"name": "Dema", "place": "town"}}, {"type": "node", "id": 8826086459, "lat": -17.8971562, "lon": 31.0555172, "tags": {"name": "Prospect", "place": "suburb"}}, {"type": "node", "id": 9023297658, "lat": -18.0106998, "lon": 31.0527679, "tags": {"name": "Zengeza 3", "place": "quarter"}}, {"type": "node", "id": 9025005537, "lat": -18.0019427, "lon": 31.0608709, "tags": {"name": "Zengeza 2", "place": "quarter"}}, {"type": "node", "id": 9025005538, "lat": -18.0106207, "lon": 31.0656989, "tags": {"name": "Zengeza 4", "place": "quarter"}}, {"type": "node", "id": 9050805745, "lat": -17.8939828, "lon": 30.934044, "tags": {"name": "WASTE RECYCLING", "note": "MRC", "place": "plot", "source": "CLEANCITY WASTE RECYCLING  SITE;gps"}}, {"type": "node", "id": 9869554482, "lat": -17.9190058, "lon": 31.1657964, "tags": {"name": "Stopover", "place": "neighbourhood"}}, {"type": "node", "id": 9869575471, "lat": -17.9157313, "lon": 31.168218, "tags": {"name": "Magada", "place": "neighbourhood"}}, {"type": "node", "id": 10039591546, "lat": -17.8027559, "lon": 31.2287667, "tags": {"mtb:name": "Margie's Spring", "place": "locality"}}, {"type": "node", "id": 11812473342, "lat": -17.9614246, "lon": 30.9394955, "tags": {"name": "Ushewokunzwe", "place": "quarter"}}, {"type": "way", "id": 376898471, "nodes": [3802762624, 3802762625, 3802762628, 3802762629, 3802762627, 3802762626, 3802762624], "tags": {"name": "Remembrance Island", "place": "islet"}}, {"type": "way", "id": 437040213, "nodes": [3780927056, 4348718518, 4348718517, 4348718520, 4348718521, 4348718522, 4348718519, 4348718516, 4348718515, 4348718513, 4348718512, 4348718510, 4348718511, 4348718514, 3780927056], "tags": {"name": "Bird Island", "place": "islet"}}, {"type": "way", "id": 437040214, "nodes": [4348718002, 4348718005, 4348718007, 4348718010, 4348718011, 3780929457, 4348718009, 4348718008, 4348718006, 4348718003, 4348718002], "tags": {"name": "Dassie Island", "place": "islet"}}, {"type": "way", "id": 437040215, "nodes": [4348718508, 4348718509, 4348718507, 3780929458, 4348718506, 4348718508], "tags": {"name": "Floating Rock", "place": "islet"}}, {"type": "way", "id": 437040216, "nodes": [4348718498, 4348718500, 4348718502, 4348718503, 4348718505, 4348718504, 3780929459, 4348718501, 4348718499, 4348718497, 4348718496, 4348718498], "tags": {"name": "Hydro Island", "place": "islet"}}, {"type": "way", "id": 628774501, "nodes": [4081848758, 4081848753, 4081848751, 4081848749, 4081856660, 4081856650, 4081856649, 4081856833, 4081856831, 4081856827, 4081856826, 4081856823, 4081856825, 4081856837, 4081856836, 4081856651, 4081856652, 4081848763, 4081848761, 4081848756, 4081848757, 4081848762, 4081848752, 6133463881]}, {"type": "way", "id": 654573468, "nodes": [6133463881, 6133463880, 319973509, 319973341, 4081893343]}, {"type": "way", "id": 654573469, "nodes": [4081856632, 6133463877, 7038018528]}, {"type": "way", "id": 654573471, "nodes": [4081893343, 3428601165, 5936498518, 5936498519, 5936498520, 6133463879, 6207641862, 4081856632]}, {"type": "way", "id": 753237281, "nodes": [7038018527, 319986393, 4081848758]}, {"type": "way", "id": 753237283, "nodes": [7038018527, 7038018526, 7038018525, 7038018528]}, {"type": "way", "id": 942827100, "nodes": [4080563011, 4080563007, 4080563014, 4080563016, 4080563017, 4080563011], "tags": {"landuse": "residential", "name": "Shortson", "place": "neighbourhood", "residential": "urban"}}, {"type": "relation", "id": 9101317, "members": [{"type": "way", "ref": 753237283, "role": "outer"}, {"type": "way", "ref": 753237281, "role": "outer"}, {"type": "way", "ref": 628774501, "role": "outer"}, {"type": "way", "ref": 654573468, "role": "outer"}, {"type": "way", "ref": 654573471, "role": "outer"}, {"type": "way", "ref": 654573469, "role": "outer"}], "tags": {"description": "Msasa Park", "landuse": "residential", "name": "Msasa Park", "place": "neighbourhood", "type": "multipolygon"}}]}